[
  {
    "ref": "Luke 2:4-7",
    "text": "And Joseph also went up... unto the city of David, which is called Bethlehem... And she brought forth her firstborn son, and wrapped him in swaddling clothes, and laid him in a manger.",
    "event": "The birth of Jesus",
    "place": "Bethlehem",
    "era": "c. 4 BC",
    "lat": 31.7054,
    "lon": 35.2024
  },
  {
    "ref": "1 Samuel 17:48-49",
    "text": "And David put his hand in his bag, and took thence a stone, and slang it, and smote the Philistine in his forehead... and he fell upon his face to the earth.",
    "event": "David defeats Goliath",
    "place": "Valley of Elah",
    "era": "c. 1010 BC",
    "lat": 31.69,
    "lon": 34.96
  },
  {
    "ref": "Joshua 6:20",
    "text": "So the people shouted when the priests blew with the trumpets... and the wall fell down flat... and they took the city.",
    "event": "The walls of Jericho fall",
    "place": "Jericho",
    "era": "c. 1400 BC",
    "lat": 31.8667,
    "lon": 35.45
  },
  {
    "ref": "Exodus 19:20",
    "text": "And the LORD came down upon mount Sinai, on the top of the mount: and the LORD called Moses up to the top of the mount; and Moses went up.",
    "event": "Moses receives the Ten Commandments",
    "place": "Mount Sinai",
    "era": "c. 1446 BC",
    "lat": 28.5394,
    "lon": 33.975
  },
  {
    "ref": "Genesis 8:4",
    "text": "And the ark rested in the seventh month, on the seventeenth day of the month, upon the mountains of Ararat.",
    "event": "Noah's ark comes to rest",
    "place": "Mount Ararat",
    "era": "primeval age",
    "lat": 39.7019,
    "lon": 44.2983
  },
  {
    "ref": "Acts 9:3-4",
    "text": "And as he journeyed, he came near Damascus: and suddenly there shined round about him a light from heaven... Saul, Saul, why persecutest thou me?",
    "event": "Paul's conversion on the road to Damascus",
    "place": "Damascus",
    "era": "c. AD 34",
    "lat": 33.5138,
    "lon": 36.2765
  },
  {
    "ref": "Jonah 3:3-4",
    "text": "So Jonah arose, and went unto Nineveh... and he cried, and said, Yet forty days, and Nineveh shall be overthrown.",
    "event": "Jonah preaches to Nineveh",
    "place": "Nineveh",
    "era": "c. 760 BC",
    "lat": 36.359,
    "lon": 43.153
  },
  {
    "ref": "1 Kings 18:38-39",
    "text": "Then the fire of the LORD fell, and consumed the burnt sacrifice... And when all the people saw it, they fell on their faces: and they said, The LORD, he is the God.",
    "event": "Elijah versus the prophets of Baal",
    "place": "Mount Carmel",
    "era": "c. 860 BC",
    "lat": 32.7333,
    "lon": 35.05
  },
  {
    "ref": "John 2:9-11",
    "text": "the ruler of the feast had tasted the water that was made wine... This beginning of miracles did Jesus in Cana of Galilee.",
    "event": "Jesus turns water into wine",
    "place": "Cana of Galilee",
    "era": "c. AD 27",
    "lat": 32.7487,
    "lon": 35.3394
  },
  {
    "ref": "Acts 28:1",
    "text": "And when they were escaped, then they knew that the island was called Melita.",
    "event": "Paul is shipwrecked",
    "place": "Malta (Melita)",
    "era": "c. AD 60",
    "lat": 35.9667,
    "lon": 14.3667
  },
  {
    "ref": "Esther 1:2",
    "text": "In those days, when the king Ahasuerus sat on the throne of his kingdom, which was in Shushan the palace.",
    "event": "Esther becomes queen",
    "place": "Susa (Shushan)",
    "era": "c. 480 BC",
    "lat": 32.1897,
    "lon": 48.2575
  },
  {
    "ref": "Genesis 11:9",
    "text": "Therefore is the name of it called Babel; because the LORD did there confound the language of all the earth.",
    "event": "The Tower of Babel",
    "place": "Babylon",
    "era": "primeval age",
    "lat": 32.5364,
    "lon": 44.4209
  },
  {
    "ref": "Matthew 27:33-35",
    "text": "And when they were come unto a place called Golgotha... they crucified him.",
    "event": "The crucifixion of Jesus",
    "place": "Jerusalem (Golgotha)",
    "era": "c. AD 30",
    "lat": 31.7784,
    "lon": 35.2298
  },
  {
    "ref": "Matthew 4:18-19",
    "text": "And Jesus, walking by the sea of Galilee, saw two brethren... Follow me, and I will make you fishers of men.",
    "event": "Jesus calls his first disciples",
    "place": "Sea of Galilee",
    "era": "c. AD 27",
    "lat": 32.8808,
    "lon": 35.5754
  },
  {
    "ref": "Genesis 22:2",
    "text": "Take now thy son... and get thee into the land of Moriah; and offer him there for a burnt offering upon one of the mountains.",
    "event": "Abraham is tested with Isaac",
    "place": "Mount Moriah, Jerusalem",
    "era": "c. 2000 BC",
    "lat": 31.778,
    "lon": 35.236
  },
  {
    "ref": "Genesis 15:7",
    "text": "And he said unto him, I am the LORD that brought thee out of Ur of the Chaldees, to give thee this land to inherit it.",
    "event": "God calls Abram from his homeland",
    "place": "Ur of the Chaldees",
    "era": "c. 2000 BC",
    "lat": 30.9626,
    "lon": 46.103
  },
  {
    "ref": "Genesis 12:4",
    "text": "So Abram departed, as the LORD had spoken unto him... and Abram was seventy and five years old when he departed out of Haran.",
    "event": "Abram leaves Haran for Canaan",
    "place": "Haran",
    "era": "c. 2000 BC",
    "lat": 36.8649,
    "lon": 39.0307
  },
  {
    "ref": "Genesis 23:19",
    "text": "And after this, Abraham buried Sarah his wife in the cave of the field of Machpelah... the same is Hebron in the land of Canaan.",
    "event": "Abraham buries Sarah at the cave of Machpelah",
    "place": "Hebron",
    "era": "c. 1980 BC",
    "lat": 31.5326,
    "lon": 35.0998
  },
  {
    "ref": "Genesis 19:24",
    "text": "Then the LORD rained upon Sodom and upon Gomorrah brimstone and fire from the LORD out of heaven.",
    "event": "The destruction of Sodom and Gomorrah",
    "place": "Plain near the Dead Sea",
    "era": "c. 1900 BC",
    "lat": 31.25,
    "lon": 35.4
  },
  {
    "ref": "Genesis 21:14",
    "text": "and she departed, and wandered in the wilderness of Beersheba.",
    "event": "Hagar and Ishmael in the wilderness",
    "place": "Beersheba",
    "era": "c. 1990 BC",
    "lat": 31.2518,
    "lon": 34.7913
  },
  {
    "ref": "Genesis 28:12",
    "text": "And he dreamed, and behold a ladder set up on the earth, and the top of it reached to heaven: and behold the angels of God ascending and descending on it.",
    "event": "Jacob's ladder",
    "place": "Bethel",
    "era": "c. 1920 BC",
    "lat": 31.9308,
    "lon": 35.2203
  },
  {
    "ref": "Genesis 32:24",
    "text": "And Jacob was left alone; and there wrestled a man with him until the breaking of the day.",
    "event": "Jacob wrestles with God",
    "place": "Peniel, by the Jabbok",
    "era": "c. 1900 BC",
    "lat": 32.2,
    "lon": 35.62
  },
  {
    "ref": "John 4:6-7",
    "text": "Now Jacob's well was there. Jesus therefore, being wearied with his journey, sat thus on the well... There cometh a woman of Samaria to draw water.",
    "event": "Jesus and the woman at the well",
    "place": "Shechem (Sychar)",
    "era": "c. AD 27",
    "lat": 32.2137,
    "lon": 35.2783
  },
  {
    "ref": "Exodus 14:21",
    "text": "and the LORD caused the sea to go back by a strong east wind all that night... and the waters were divided.",
    "event": "The crossing of the Red Sea",
    "place": "The Red Sea",
    "era": "c. 1446 BC",
    "lat": 30.0,
    "lon": 32.55
  },
  {
    "ref": "Deuteronomy 34:1",
    "text": "And Moses went up... unto the top of Pisgah... And the LORD shewed him all the land.",
    "event": "Moses views the Promised Land",
    "place": "Mount Nebo",
    "era": "c. 1406 BC",
    "lat": 31.7681,
    "lon": 35.7253
  },
  {
    "ref": "Joshua 10:13",
    "text": "And the sun stood still, and the moon stayed, until the people had avenged themselves upon their enemies.",
    "event": "The sun stands still",
    "place": "Gibeon",
    "era": "c. 1400 BC",
    "lat": 31.8467,
    "lon": 35.1844
  },
  {
    "ref": "1 Samuel 31:4",
    "text": "Therefore Saul took a sword, and fell upon it.",
    "event": "The death of King Saul",
    "place": "Mount Gilboa",
    "era": "c. 1010 BC",
    "lat": 32.4,
    "lon": 35.42
  },
  {
    "ref": "Revelation 16:16",
    "text": "And he gathered them together into a place called in the Hebrew tongue Armageddon.",
    "event": "The gathering at Armageddon",
    "place": "Megiddo",
    "era": "end-times prophecy",
    "lat": 32.5849,
    "lon": 35.184
  },
  {
    "ref": "Luke 4:28-29",
    "text": "And all they in the synagogue... rose up, and thrust him out of the city, and led him unto the brow of the hill... that they might cast him down headlong.",
    "event": "Jesus is rejected at his hometown",
    "place": "Nazareth",
    "era": "c. AD 28",
    "lat": 32.7019,
    "lon": 35.2978
  },
  {
    "ref": "Mark 2:1-4",
    "text": "And again he entered into Capernaum... they uncovered the roof where he was... and let down the bed wherein the sick of the palsy lay.",
    "event": "The paralytic lowered through the roof",
    "place": "Capernaum",
    "era": "c. AD 28",
    "lat": 32.8808,
    "lon": 35.575
  },
  {
    "ref": "Matthew 3:16",
    "text": "And Jesus, when he was baptized, went up straightway out of the water: and, lo, the heavens were opened unto him.",
    "event": "The baptism of Jesus",
    "place": "The Jordan River",
    "era": "c. AD 27",
    "lat": 31.8372,
    "lon": 35.5497
  },
  {
    "ref": "Matthew 17:2",
    "text": "And was transfigured before them: and his face did shine as the sun, and his raiment was white as the light.",
    "event": "The Transfiguration",
    "place": "Mount Tabor",
    "era": "c. AD 29",
    "lat": 32.6869,
    "lon": 35.3903
  },
  {
    "ref": "John 11:43-44",
    "text": "And when he thus had spoken, he cried with a loud voice, Lazarus, come forth. And he that was dead came forth.",
    "event": "The raising of Lazarus",
    "place": "Bethany",
    "era": "c. AD 30",
    "lat": 31.7717,
    "lon": 35.2569
  },
  {
    "ref": "Matthew 26:36",
    "text": "Then cometh Jesus with them unto a place called Gethsemane, and saith unto the disciples, Sit ye here, while I go and pray yonder.",
    "event": "Jesus prays before his arrest",
    "place": "Gethsemane",
    "era": "c. AD 30",
    "lat": 31.7794,
    "lon": 35.2397
  },
  {
    "ref": "Acts 1:9-12",
    "text": "he was taken up; and a cloud received him out of their sight... Then returned they unto Jerusalem from the mount called Olivet.",
    "event": "The Ascension of Jesus",
    "place": "Mount of Olives",
    "era": "c. AD 30",
    "lat": 31.7784,
    "lon": 35.2461
  },
  {
    "ref": "Luke 24:30-31",
    "text": "And their eyes were opened, and they knew him; and he vanished out of their sight.",
    "event": "On the road to Emmaus",
    "place": "Emmaus",
    "era": "c. AD 30",
    "lat": 31.84,
    "lon": 34.99
  },
  {
    "ref": "Acts 9:40",
    "text": "and turning him to the body said, Tabitha, arise. And she opened her eyes: and when she saw Peter, she sat up.",
    "event": "Peter raises Tabitha",
    "place": "Joppa (Jaffa)",
    "era": "c. AD 36",
    "lat": 32.0533,
    "lon": 34.7522
  },
  {
    "ref": "Acts 10:1-2",
    "text": "There was a certain man in Caesarea called Cornelius, a centurion... a devout man, and one that feared God.",
    "event": "Cornelius, the first Gentile convert",
    "place": "Caesarea Maritima",
    "era": "c. AD 37",
    "lat": 32.5021,
    "lon": 34.8917
  },
  {
    "ref": "Matthew 16:18",
    "text": "And I say also unto thee, That thou art Peter, and upon this rock I will build my church.",
    "event": "Peter's confession of Christ",
    "place": "Caesarea Philippi",
    "era": "c. AD 29",
    "lat": 33.2486,
    "lon": 35.6944
  },
  {
    "ref": "Acts 11:26",
    "text": "And the disciples were called Christians first in Antioch.",
    "event": "Believers first called Christians",
    "place": "Antioch",
    "era": "c. AD 43",
    "lat": 36.2021,
    "lon": 36.1604
  },
  {
    "ref": "Acts 22:3",
    "text": "I am verily a man which am a Jew, born in Tarsus, a city in Cilicia.",
    "event": "Paul names his birthplace",
    "place": "Tarsus",
    "era": "c. AD 5",
    "lat": 36.9177,
    "lon": 34.8947
  },
  {
    "ref": "Acts 19:28",
    "text": "they were full of wrath, and cried out, saying, Great is Diana of the Ephesians.",
    "event": "The riot of the silversmiths",
    "place": "Ephesus",
    "era": "c. AD 56",
    "lat": 37.9417,
    "lon": 27.3417
  },
  {
    "ref": "Acts 16:25-26",
    "text": "And suddenly there was a great earthquake, so that the foundations of the prison were shaken... and every one's bands were loosed.",
    "event": "Paul and Silas freed from prison",
    "place": "Philippi",
    "era": "c. AD 50",
    "lat": 41.0136,
    "lon": 24.287
  },
  {
    "ref": "Acts 17:22",
    "text": "Then Paul stood in the midst of Mars' hill, and said, Ye men of Athens, I perceive that in all things ye are too superstitious.",
    "event": "Paul preaches at the Areopagus",
    "place": "Athens",
    "era": "c. AD 50",
    "lat": 37.9715,
    "lon": 23.7257
  },
  {
    "ref": "Acts 18:1",
    "text": "After these things Paul departed from Athens, and came to Corinth.",
    "event": "Paul's ministry in Corinth",
    "place": "Corinth",
    "era": "c. AD 51",
    "lat": 37.9061,
    "lon": 22.8786
  },
  {
    "ref": "Acts 28:16",
    "text": "And when we came to Rome... Paul was suffered to dwell by himself with a soldier that kept him.",
    "event": "Paul's imprisonment in Rome",
    "place": "Rome",
    "era": "c. AD 60",
    "lat": 41.9028,
    "lon": 12.4964
  },
  {
    "ref": "Revelation 1:9",
    "text": "I John... was in the isle that is called Patmos, for the word of God, and for the testimony of Jesus Christ.",
    "event": "John receives the Revelation",
    "place": "Patmos",
    "era": "c. AD 95",
    "lat": 37.3089,
    "lon": 26.5479
  },
  {
    "ref": "1 Kings 16:24",
    "text": "And he bought the hill Samaria... and built on the hill, and called the name of the city... Samaria.",
    "event": "Omri builds the capital of Israel",
    "place": "Samaria",
    "era": "c. 880 BC",
    "lat": 32.2806,
    "lon": 35.19
  },
  {
    "ref": "1 Kings 21:1-2",
    "text": "Naboth the Jezreelite had a vineyard, which was in Jezreel, hard by the palace of Ahab king of Samaria.",
    "event": "Naboth's vineyard",
    "place": "Jezreel",
    "era": "c. 860 BC",
    "lat": 32.5577,
    "lon": 35.3289
  },
  {
    "ref": "Mark 7:26",
    "text": "The woman was a Greek, a Syrophenician by nation; and she besought him that he would cast forth the devil out of her daughter.",
    "event": "The faith of the Syrophoenician woman",
    "place": "Tyre",
    "era": "c. AD 29",
    "lat": 33.2705,
    "lon": 35.1939
  },
  {
    "ref": "1 Samuel 1:9-11",
    "text": "So Hannah rose up... Now Eli the priest sat upon a seat by a post of the temple of the LORD. And she... prayed unto the LORD, and wept sore.",
    "event": "Hannah prays for a son at the tabernacle",
    "place": "Shiloh",
    "era": "c. 1100 BC",
    "lat": 32.0556,
    "lon": 35.2894
  },
  {
    "ref": "Judges 16:29-30",
    "text": "And Samson took hold of the two middle pillars... And Samson said, Let me die with the Philistines. And he bowed himself with all his might.",
    "event": "Samson brings down the temple",
    "place": "Gaza",
    "era": "c. 1100 BC",
    "lat": 31.5017,
    "lon": 34.4668
  },
  {
    "ref": "1 Samuel 5:3-4",
    "text": "Dagon was fallen upon his face to the ground before the ark of the LORD... and the head of Dagon and both the palms of his hands were cut off.",
    "event": "Dagon falls before the ark",
    "place": "Ashdod",
    "era": "c. 1080 BC",
    "lat": 31.7558,
    "lon": 34.6497
  },
  {
    "ref": "Genesis 37:28",
    "text": "Then there passed by Midianites merchantmen; and they drew and lifted up Joseph out of the pit, and sold Joseph to the Ishmeelites for twenty pieces of silver.",
    "event": "Joseph is sold into slavery",
    "place": "Dothan",
    "era": "c. 1900 BC",
    "lat": 32.4106,
    "lon": 35.2253
  },
  {
    "ref": "1 Kings 12:28-29",
    "text": "Whereupon the king... made two calves of gold... And he set the one in Bethel, and the other put he in Dan.",
    "event": "Jeroboam sets up a golden calf",
    "place": "Dan",
    "era": "c. 930 BC",
    "lat": 33.2487,
    "lon": 35.652
  },
  {
    "ref": "1 Kings 17:15-16",
    "text": "And she went and did according to the saying of Elijah... And the barrel of meal wasted not, neither did the cruse of oil fail.",
    "event": "Elijah and the widow's oil",
    "place": "Zarephath",
    "era": "c. 870 BC",
    "lat": 33.4514,
    "lon": 35.2961
  },
  {
    "ref": "2 Kings 4:34-35",
    "text": "And he went up, and lay upon the child... and the flesh of the child waxed warm... and the child sneezed seven times, and the child opened his eyes.",
    "event": "Elisha raises the Shunammite's son",
    "place": "Shunem",
    "era": "c. 850 BC",
    "lat": 32.6039,
    "lon": 35.3336
  },
  {
    "ref": "2 Chronicles 32:9",
    "text": "After this did Sennacherib king of Assyria send his servants to Jerusalem (but he himself laid siege against Lachish, and all his power with him).",
    "event": "Sennacherib besieges Lachish",
    "place": "Lachish",
    "era": "701 BC",
    "lat": 31.565,
    "lon": 34.8492
  },
  {
    "ref": "Numbers 13:25-27",
    "text": "And they returned from searching of the land after forty days... and brought back word... and shewed them the fruit of the land.",
    "event": "The twelve spies return from Canaan",
    "place": "Kadesh-barnea",
    "era": "c. 1444 BC",
    "lat": 30.69,
    "lon": 34.42
  },
  {
    "ref": "Luke 7:14-15",
    "text": "And he came and touched the bier... And he said, Young man, I say unto thee, Arise. And he that was dead sat up, and began to speak.",
    "event": "Jesus raises the widow's son",
    "place": "Nain",
    "era": "c. AD 28",
    "lat": 32.6361,
    "lon": 35.3375
  },
  {
    "ref": "Mark 5:13",
    "text": "And the unclean spirits went out, and entered into the swine: and the herd ran violently down a steep place into the sea... and were choked in the sea.",
    "event": "The demons sent into the swine",
    "place": "Gergesa (country of the Gadarenes)",
    "era": "c. AD 28",
    "lat": 32.8253,
    "lon": 35.65
  },
  {
    "ref": "Luke 9:16-17",
    "text": "Then he took the five loaves and the two fishes, and looking up to heaven, he blessed them... And they did all eat, and were filled.",
    "event": "The feeding of the five thousand",
    "place": "Bethsaida",
    "era": "c. AD 29",
    "lat": 32.91,
    "lon": 35.6306
  },
  {
    "ref": "Acts 9:34",
    "text": "And Peter said unto him, Aeneas, Jesus Christ maketh thee whole: arise, and make thy bed. And he arose immediately.",
    "event": "Peter heals Aeneas",
    "place": "Lydda",
    "era": "c. AD 35",
    "lat": 31.9519,
    "lon": 34.8954
  },
  {
    "ref": "Acts 13:11",
    "text": "And now, behold, the hand of the Lord is upon thee, and thou shalt be blind... And immediately there fell on him a mist and a darkness.",
    "event": "Elymas the sorcerer struck blind",
    "place": "Paphos, Cyprus",
    "era": "c. AD 47",
    "lat": 34.7571,
    "lon": 32.4067
  },
  {
    "ref": "Acts 14:19",
    "text": "And there came thither certain Jews... and, having stoned Paul, drew him out of the city, supposing he had been dead.",
    "event": "Paul is stoned and left for dead",
    "place": "Lystra",
    "era": "c. AD 48",
    "lat": 37.58,
    "lon": 32.45
  },
  {
    "ref": "Acts 17:1-2",
    "text": "Now when they had passed through Amphipolis and Apollonia, they came to Thessalonica... And Paul, as his manner was, went in unto them.",
    "event": "Paul reasons in the synagogue",
    "place": "Thessalonica",
    "era": "c. AD 50",
    "lat": 40.6401,
    "lon": 22.9444
  },
  {
    "ref": "Acts 17:11",
    "text": "These were more noble than those in Thessalonica... they received the word with all readiness of mind, and searched the scriptures daily.",
    "event": "The noble Bereans search the Scriptures",
    "place": "Berea",
    "era": "c. AD 50",
    "lat": 40.5236,
    "lon": 22.2025
  },
  {
    "ref": "Acts 16:9",
    "text": "And a vision appeared to Paul in the night; There stood a man of Macedonia, and prayed him, saying, Come over into Macedonia, and help us.",
    "event": "Paul's vision of the man of Macedonia",
    "place": "Troas",
    "era": "c. AD 50",
    "lat": 39.7497,
    "lon": 26.159
  },
  {
    "ref": "Acts 20:17-18",
    "text": "And from Miletus he sent to Ephesus, and called the elders of the church... Ye know, from the first day that I came into Asia, after what manner I have been with you.",
    "event": "Paul's farewell to the Ephesian elders",
    "place": "Miletus",
    "era": "c. AD 57",
    "lat": 37.53,
    "lon": 27.2786
  },
  {
    "ref": "Acts 27:8",
    "text": "And, hardly passing it, came unto a place which is called The fair havens; nigh whereunto was the city of Lasea.",
    "event": "Paul harbours before the storm",
    "place": "Fair Havens, Crete",
    "era": "c. AD 59",
    "lat": 34.9167,
    "lon": 24.8
  },
  {
    "ref": "Revelation 2:8-9",
    "text": "And unto the angel of the church in Smyrna write... I know thy works, and tribulation, and poverty, (but thou art rich).",
    "event": "The letter to the church in Smyrna",
    "place": "Smyrna",
    "era": "c. AD 95",
    "lat": 38.4192,
    "lon": 27.1287
  },
  {
    "ref": "Revelation 2:12-13",
    "text": "And to the angel of the church in Pergamos write... I know thy works, and where thou dwellest, even where Satan's seat is.",
    "event": "The letter to the church in Pergamum",
    "place": "Pergamum",
    "era": "c. AD 95",
    "lat": 39.132,
    "lon": 27.184
  },
  {
    "ref": "Revelation 3:1",
    "text": "And unto the angel of the church in Sardis write... I know thy works, that thou hast a name that thou livest, and art dead.",
    "event": "The letter to the church in Sardis",
    "place": "Sardis",
    "era": "c. AD 95",
    "lat": 38.4885,
    "lon": 28.0407
  },
  {
    "ref": "Revelation 3:15-16",
    "text": "I know thy works, that thou art neither cold nor hot... So then because thou art lukewarm... I will spue thee out of my mouth.",
    "event": "The letter to the lukewarm church",
    "place": "Laodicea",
    "era": "c. AD 95",
    "lat": 37.8361,
    "lon": 29.1075
  },
  {
    "ref": "Acts 16:14",
    "text": "And a certain woman named Lydia, a seller of purple, of the city of Thyatira... whose heart the Lord opened, that she attended unto the things which were spoken of Paul.",
    "event": "Lydia, the seller of purple, believes",
    "place": "Thyatira",
    "era": "c. AD 50",
    "lat": 38.9197,
    "lon": 27.8403
  },
  {
    "ref": "1 Samuel 24:3-4",
    "text": "And he came to the sheepcotes by the way... And the men of David said unto him, Behold the day... And David arose, and cut off the skirt of Saul's robe privily.",
    "event": "David spares Saul's life in the cave",
    "place": "En-gedi",
    "era": "c. 1012 BC",
    "lat": 31.4614,
    "lon": 35.3924
  },
  {
    "ref": "1 Samuel 6:13",
    "text": "And they of Bethshemesh were reaping their wheat harvest in the valley: and they lifted up their eyes, and saw the ark, and rejoiced to see it.",
    "event": "The ark of the covenant returns to Israel",
    "place": "Beth-shemesh",
    "era": "c. 1080 BC",
    "lat": 31.7656,
    "lon": 34.9756
  },
  {
    "ref": "2 Samuel 11:17",
    "text": "And the men of the city went out, and fought with Joab... and Uriah the Hittite died also.",
    "event": "Uriah the Hittite falls in battle",
    "place": "Rabbah of Ammon",
    "era": "c. 990 BC",
    "lat": 31.9516,
    "lon": 35.9239
  },
  {
    "ref": "1 Kings 22:34-35",
    "text": "And a certain man drew a bow at a venture, and smote the king of Israel between the joints of the harness... and the king died at even.",
    "event": "King Ahab dies in battle",
    "place": "Ramoth-gilead",
    "era": "c. 853 BC",
    "lat": 32.56,
    "lon": 35.99
  },
  {
    "ref": "Joshua 11:10-11",
    "text": "And Joshua at that time turned back, and took Hazor... and he burnt Hazor with fire.",
    "event": "Joshua captures and burns Hazor",
    "place": "Hazor",
    "era": "c. 1400 BC",
    "lat": 33.0177,
    "lon": 35.5681
  },
  {
    "ref": "Joshua 8:28",
    "text": "And Joshua burnt Ai, and made it an heap for ever, even a desolation unto this day.",
    "event": "The fall of Ai",
    "place": "Ai",
    "era": "c. 1400 BC",
    "lat": 31.917,
    "lon": 35.2611
  },
  {
    "ref": "1 Samuel 28:7-8",
    "text": "Then said Saul unto his servants, Seek me a woman that hath a familiar spirit... And the woman said... whom shall I bring up unto thee? And he said, Bring me up Samuel.",
    "event": "Saul and the medium of Endor",
    "place": "Endor",
    "era": "c. 1010 BC",
    "lat": 32.617,
    "lon": 35.417
  },
  {
    "ref": "Amos 1:1",
    "text": "The words of Amos, who was among the herdmen of Tekoa, which he saw concerning Israel.",
    "event": "Amos the shepherd-prophet",
    "place": "Tekoa",
    "era": "c. 760 BC",
    "lat": 31.6447,
    "lon": 35.2147
  },
  {
    "ref": "Jeremiah 1:1",
    "text": "The words of Jeremiah... of the priests that were in Anathoth in the land of Benjamin.",
    "event": "Jeremiah's hometown and calling",
    "place": "Anathoth",
    "era": "c. 627 BC",
    "lat": 31.8114,
    "lon": 35.2606
  },
  {
    "ref": "Jeremiah 46:2",
    "text": "Against the army of Pharaohnecho king of Egypt, which was by the river Euphrates in Carchemish, which Nebuchadrezzar king of Babylon smote.",
    "event": "The great battle of Carchemish",
    "place": "Carchemish",
    "era": "605 BC",
    "lat": 36.829,
    "lon": 38.015
  },
  {
    "ref": "Acts 2:2-4",
    "text": "And suddenly there came a sound from heaven as of a rushing mighty wind... And there appeared unto them cloven tongues like as of fire... And they were all filled with the Holy Ghost.",
    "event": "The day of Pentecost",
    "place": "Jerusalem",
    "era": "c. AD 30",
    "lat": 31.7784,
    "lon": 35.233
  },
  {
    "ref": "1 Kings 8:10-11",
    "text": "the cloud filled the house of the LORD... for the glory of the LORD had filled the house of the LORD.",
    "event": "Solomon dedicates the temple",
    "place": "Jerusalem (the Temple)",
    "era": "c. 959 BC",
    "lat": 31.778,
    "lon": 35.2354
  },
  {
    "ref": "Acts 8:38",
    "text": "And he commanded the chariot to stand still: and they went down both into the water, both Philip and the eunuch; and he baptized him.",
    "event": "Philip baptizes the Ethiopian eunuch",
    "place": "The desert road to Gaza",
    "era": "c. AD 35",
    "lat": 31.52,
    "lon": 34.62
  },
  {
    "ref": "Acts 13:13",
    "text": "Now when Paul and his company loosed from Paphos, they came to Perga in Pamphylia: and John departing from them returned to Jerusalem.",
    "event": "John Mark leaves the mission",
    "place": "Perga",
    "era": "c. AD 47",
    "lat": 36.9613,
    "lon": 30.8537
  },
  {
    "ref": "Acts 13:14-16",
    "text": "they came to Antioch in Pisidia, and went into the synagogue on the sabbath day... Then Paul stood up, and beckoning with his hand said, Men of Israel, and ye that fear God, give audience.",
    "event": "Paul's sermon in the synagogue",
    "place": "Antioch in Pisidia",
    "era": "c. AD 47",
    "lat": 38.306,
    "lon": 31.1897
  },
  {
    "ref": "Acts 14:1",
    "text": "And it came to pass in Iconium, that they went both together into the synagogue... and so spake, that a great multitude both of the Jews and also of the Greeks believed.",
    "event": "A great multitude believes",
    "place": "Iconium",
    "era": "c. AD 48",
    "lat": 37.8716,
    "lon": 32.4847
  },
  {
    "ref": "Acts 14:20-21",
    "text": "And the next day he departed with Barnabas to Derbe. And when they had preached the gospel to that city, and had taught many...",
    "event": "Many disciples made at Derbe",
    "place": "Derbe",
    "era": "c. AD 48",
    "lat": 37.35,
    "lon": 33.28
  },
  {
    "ref": "Acts 28:12",
    "text": "And landing at Syracuse, we tarried there three days.",
    "event": "Paul's voyage stops at Syracuse",
    "place": "Syracuse, Sicily",
    "era": "c. AD 60",
    "lat": 37.0755,
    "lon": 15.2866
  },
  {
    "ref": "Acts 28:13-14",
    "text": "and came the next day to Puteoli: where we found brethren... and so we went toward Rome.",
    "event": "Paul lands in Italy",
    "place": "Puteoli",
    "era": "c. AD 60",
    "lat": 40.8225,
    "lon": 14.1216
  },
  {
    "ref": "1 Samuel 4:10-11",
    "text": "And the Philistines fought, and Israel was smitten... And the ark of God was taken; and the two sons of Eli, Hophni and Phinehas, were slain.",
    "event": "The Philistines capture the ark",
    "place": "Aphek",
    "era": "c. 1080 BC",
    "lat": 32.1042,
    "lon": 34.9356
  },
  {
    "ref": "1 Samuel 7:5-6",
    "text": "And Samuel said, Gather all Israel to Mizpeh, and I will pray for you unto the LORD... and they drew water, and poured it out before the LORD, and fasted on that day.",
    "event": "Samuel gathers Israel to repent",
    "place": "Mizpah",
    "era": "c. 1070 BC",
    "lat": 31.887,
    "lon": 35.216
  },
  {
    "ref": "1 Samuel 11:4",
    "text": "Then came the messengers to Gibeah of Saul, and told the tidings in the ears of the people: and all the people lifted up their voices, and wept.",
    "event": "Saul's royal town hears the call to arms",
    "place": "Gibeah",
    "era": "c. 1020 BC",
    "lat": 31.8237,
    "lon": 35.2317
  },
  {
    "ref": "1 Samuel 11:9-11",
    "text": "And it came to pass on the morrow, that Saul put the people in three companies... and slew the Ammonites until the heat of the day.",
    "event": "Saul rescues Jabesh-gilead",
    "place": "Jabesh-gilead",
    "era": "c. 1020 BC",
    "lat": 32.45,
    "lon": 35.65
  },
  {
    "ref": "1 Kings 9:17",
    "text": "And Solomon built Gezer, and Bethhoron the nether.",
    "event": "Solomon rebuilds the city",
    "place": "Gezer",
    "era": "c. 950 BC",
    "lat": 31.8597,
    "lon": 34.9189
  },
  {
    "ref": "2 Kings 25:6-7",
    "text": "So they took the king, and brought him up to the king of Babylon to Riblah... and they put out the eyes of Zedekiah, and bound him with fetters of brass.",
    "event": "King Zedekiah is blinded",
    "place": "Riblah",
    "era": "586 BC",
    "lat": 34.4607,
    "lon": 36.5526
  },
  {
    "ref": "Jeremiah 43:7-8",
    "text": "So they came into the land of Egypt... thus came they even to Tahpanhes. Then came the word of the LORD unto Jeremiah in Tahpanhes.",
    "event": "Jeremiah carried into Egypt",
    "place": "Tahpanhes",
    "era": "c. 586 BC",
    "lat": 30.8667,
    "lon": 32.1667
  },
  {
    "ref": "Matthew 11:21",
    "text": "Woe unto thee, Chorazin! woe unto thee, Bethsaida! for if the mighty works... had been done in Tyre and Sidon, they would have repented long ago.",
    "event": "Jesus pronounces woe on the city",
    "place": "Chorazin",
    "era": "c. AD 29",
    "lat": 32.9106,
    "lon": 35.5683
  },
  {
    "ref": "Acts 27:3",
    "text": "And the next day we touched at Sidon. And Julius courteously entreated Paul, and gave him liberty to go unto his friends to refresh himself.",
    "event": "Paul is shown kindness on the voyage",
    "place": "Sidon",
    "era": "c. AD 59",
    "lat": 33.563,
    "lon": 35.3686
  },
  {
    "ref": "Acts 27:5-6",
    "text": "And when we had sailed over the sea of Cilicia and Pamphylia, we came to Myra, a city of Lycia. And there the centurion found a ship of Alexandria sailing into Italy.",
    "event": "Paul boards the ship bound for Rome",
    "place": "Myra",
    "era": "c. AD 59",
    "lat": 36.2589,
    "lon": 29.985
  },
  {
    "ref": "Acts 21:7",
    "text": "And when we had finished our course from Tyre, we came to Ptolemais, and saluted the brethren, and abode with them one day.",
    "event": "Paul greets the believers",
    "place": "Ptolemais",
    "era": "c. AD 57",
    "lat": 32.9281,
    "lon": 35.082
  },
  {
    "ref": "Acts 21:1",
    "text": "And it came to pass, that after we were gotten from them, and had launched, we came with a straight course unto Coos, and the day following unto Rhodes.",
    "event": "Paul's ship calls at Rhodes",
    "place": "Rhodes",
    "era": "c. AD 57",
    "lat": 36.4349,
    "lon": 28.2176
  }
]
